[
 {
   "city": "Somersworth",
   "lat": 43.2534,
   "lng": -70.8856
 },
 {
   "city": "Keene",
   "lat": 42.9494,
   "lng": -72.2997
 },
 {
   "city": "Tilton Northfield",
   "lat": 43.443,
   "lng": -71.5937
 },
 {
   "city": "Contoocook",
   "lat": 43.2232,
   "lng": -71.7129
 },
 {
   "city": "North Walpole",
   "lat": 43.1469,
   "lng": -72.4459
 },
 {
   "city": "Franklin",
   "lat": 43.4499,
   "lng": -71.6691
 },
 {
   "city": "Berlin",
   "lat": 44.4869,
   "lng": -71.2599
 },
 {
   "city": "West Swanzey",
   "lat": 42.8707,
   "lng": -72.3225
 },
 {
   "city": "North Conway",
   "lat": 44.0524,
   "lng": -71.1247
 },
 {
   "city": "Seabrook Beach",
   "lat": 42.885,
   "lng": -70.8234
 },
 {
   "city": "Suissevale",
   "lat": 43.7233,
   "lng": -71.3623
 },
 {
   "city": "Suncook",
   "lat": 43.1382,
   "lng": -71.4529
 },
 {
   "city": "Center Ossipee",
   "lat": 43.7543,
   "lng": -71.1514
 },
 {
   "city": "Laconia",
   "lat": 43.5724,
   "lng": -71.4775
 },
 {
   "city": "Concord",
   "lat": 43.2305,
   "lng": -71.5595
 },
 {
   "city": "North Woodstock",
   "lat": 44.0364,
   "lng": -71.6895
 },
 {
   "city": "Hampton Beach",
   "lat": 42.9142,
   "lng": -70.8128
 },
 {
   "city": "Melvin Village",
   "lat": 43.6894,
   "lng": -71.3033
 },
 {
   "city": "Center Sandwich",
   "lat": 43.8085,
   "lng": -71.4395
 },
 {
   "city": "Portsmouth",
   "lat": 43.058,
   "lng": -70.7826
 },
 {
   "city": "Rochester",
   "lat": 43.299,
   "lng": -70.9787
 },
 {
   "city": "Claremont",
   "lat": 43.379,
   "lng": -72.3368
 },
 {
   "city": "Pinardville",
   "lat": 43.001,
   "lng": -71.5171
 },
 {
   "city": "Dover",
   "lat": 43.1887,
   "lng": -70.8845
 },
 {
   "city": "Manchester",
   "lat": 42.9848,
   "lng": -71.4447
 },
 {
   "city": "East Merrimack",
   "lat": 42.8671,
   "lng": -71.4839
 },
 {
   "city": "West Stewartstown",
   "lat": 44.9906,
   "lng": -71.5309
 },
 {
   "city": "Union",
   "lat": 43.4912,
   "lng": -71.0231
 },
 {
   "city": "Milton Mills",
   "lat": 43.5037,
   "lng": -70.9654
 },
 {
   "city": "South Hooksett",
   "lat": 43.0337,
   "lng": -71.4256
 },
 {
   "city": "Lebanon",
   "lat": 43.6353,
   "lng": -72.2531
 },
 {
   "city": "Blodgett Landing",
   "lat": 43.3757,
   "lng": -72.0392
 },
 {
   "city": "North Haverhill",
   "lat": 44.0938,
   "lng": -72.0272
 },
 {
   "city": "Nashua",
   "lat": 42.7491,
   "lng": -71.491
 },
 {
   "city": "Woodsville",
   "lat": 44.1452,
   "lng": -72.0288
 },
 {
   "city": "Groveton",
   "lat": 44.6048,
   "lng": -71.5201
 },
 {
   "city": "Sanbornville",
   "lat": 43.5524,
   "lng": -71.03
 },
 {
   "city": "Mountain Lakes",
   "lat": 44.1205,
   "lng": -71.958
 }
]